{ 
    "Brewery" :
[
  {
    "id": "5128df48-79fc-4f0f-8b52-d06be54d0cec",
    "name": "(405) Brewing Co",
    "brewery_type": "micro",
    "address_1": "1716 Topeka St",
    "address_2": null,
    "address_3": null,
    "city": "Norman",
    "state_province": "Oklahoma",
    "postal_code": "73069-8224",
    "country": "United States",
    "longitude": "-97.46818222",
    "latitude": "35.25738891",
    "phone": "4058160490",
    "image": "https://beerhunter.co.uk/wp-content/uploads/2020/04/world-craft-15-pack.jpg",
    "state": "Oklahoma",
    "street": "1716 Topeka St"
  
  },
  {
    "id": "9c5a66c8-cc13-416f-a5d9-0a769c87d318",
    "name": "(512) Brewing Co",
    "brewery_type": "micro",
    "address_1": "407 Radam Ln Ste F200",
    "address_2": null,
    "address_3": null,
    "city": "Austin",
    "state_province": "Texas",
    "postal_code": "78745-1197",
    "country": "United States",
    "longitude": null,
    "latitude": null,
    "phone": "5129211545",
    "image": "https://2tona.ge/wp-content/uploads/2019/11/img-05.jpg",
    "state": "Texas",
    "street": "407 Radam Ln Ste F200"
  },
  {
    "id": "ef970757-fe42-416f-931d-722451f1f59c",
    "name": "10 Barrel Brewing Co",
    "brewery_type": "large",
    "address_1": "1501 E St",
    "address_2": null,
    "address_3": null,
    "city": "San Diego",
    "state_province": "California",
    "postal_code": "92101-6618",
    "country": "United States",
    "longitude": "-117.129593",
    "latitude": "32.714813",
    "phone": "6195782311",
    "image": "https://thehill.com/wp-content/uploads/sites/2/2020/04/ca_coronabeer_040320istock.jpg?strip=1",
    "state": "California",
    "street": "1501 E St"
  },
  {
    "id": "6d14b220-8926-4521-8d19-b98a2d6ec3db",
    "name": "10 Barrel Brewing Co",
    "brewery_type": "large",
    "address_1": "62970 18th St",
    "address_2": null,
    "address_3": null,
    "city": "Bend",
    "state_province": "Oregon",
    "postal_code": "97701-9847",
    "country": "United States",
    "longitude": "-121.281706",
    "latitude": "44.08683531",
    "phone": "5415851007",
    "image": "https://www.frommers.com/system/media_items/attachments/000/867/790/s980/Hoffbrauhaus__Munich.jpg?1633980460",
    "name": "10 Barrel Brewing Co",
    "brewery_type": "large",
    "address_1": "1411 NW Flanders St",
    "address_2": null,
    "address_3": null,
    "city": "Portland",
    "state_province": "Oregon",
    "postal_code": "97209-2620",
    "country": "United States",
    "longitude": "-122.6855056",
    "latitude": "45.5259786",
    "phone": "5032241700",
    "image": "https://image.cnbcfm.com/api/v1/image/107140641-1666730410232-gettyimages-1429788535-3201.jpeg?v=1666893513&w=1920&h=1080",
    "state": "Oregon",
    "street": "1411 NW Flanders St"
  },
  {
    "id": "9f1852da-c312-42da-9a31-097bac81c4c0",
    "name": "10 Barrel Brewing Co - Bend Pub",
    "brewery_type": "large",
    "address_1": "62950 NE 18th St",
    "address_2": null,
    "address_3": null,
    "city": "Bend",
    "state_province": "Oregon",
    "postal_code": "97701",
    "country": "United States",
    "longitude": "-121.2809536",
    "latitude": "44.0912109",
    "phone": "5415851007",
    "image": "http://cdn.shopify.com/s/files/1/0589/3668/8834/files/IMG_5562_1200x1200.jpg?v=1641561223",
    "state": "Oregon",
    "street": "62950 NE 18th St"
  },
  {
    "id": "ea4f30c0-bce6-416b-8904-fab4055a7362",
    "name": "10 Barrel Brewing Co - Boise",
    "brewery_type": "large",
    "address_1": "826 W Bannock St",
    "address_2": null,
    "address_3": null,
    "city": "Boise",
    "state_province": "Idaho",
    "postal_code": "83702-5857",
    "country": "United States",
    "longitude": "-116.202929",
    "latitude": "43.618516",
    "phone": "2083445870",
    "image": "https://www.mchughs.ie/image/cache/catalog/products/Gifts/Xmas_German-800x800.jpg",
    "state": "Idaho",
    "street": "826 W Bannock St"
  },
  {
    "id": "1988eb86-f0a2-4674-ba04-02454efa0d31",
    "name": "10 Barrel Brewing Co - Denver",
    "brewery_type": "large",
    "address_1": "2620 Walnut St",
    "address_2": null,
    "address_3": null,
    "city": "Denver",
    "state_province": "Colorado",
    "postal_code": "80205-2231",
    "country": "United States",
    "longitude": "-104.9853655",
    "latitude": "39.7592508",
    "phone": "7205738992",
    "image": "https://glencairn.co.uk/wp-content/uploads/2019/07/beer-5-sq.jpg",
    "state": "Colorado",
    "street": "2620 Walnut St"
  },
  {
    "id": "4b677b60-fef1-42e2-90ef-dadc1bd7fb06",
    "name": "14er Brewing Company",
    "brewery_type": "proprietor",
    "address_1": "2801 Walnut St",
    "address_2": null,
    "address_3": null,
    "city": "Denver",
    "state_province": "Colorado",
    "postal_code": "80205-2235",
    "country": "United States",
    "longitude": "-104.9839636",
    "latitude": "39.7614112",
    "phone": "7207731437",
    "image": "https://static.spacecrafted.com/eae6599fef4c4b5d9569bac99e44241e/i/f66ab8d4ffcf471da53919d3bd5a0277/1/4SoifmQp45JMgBnHp7ed2/MunichHelles-3.jpg",
    "state": "Colorado",
    "street": "2801 Walnut St"
  },
  {
    "id": "6c53984f-fac1-4ea7-9c44-44e25897c71a",
    "name": "14th Star Brewing",
    "brewery_type": "micro",
    "address_1": "133 N Main St Ste 7",
    "address_2": null,
    "address_3": null,
    "city": "Saint Albans",
    "state_province": "Vermont",
    "postal_code": "05478-1735",
    "country": "United States",
    "longitude": null,
    "latitude": null,
    "phone": "8025285988",
    "image": "https://ca-times.brightspotcdn.com/dims4/default/7d8aff5/2147483647/strip/true/crop/1800x945+0+34/resize/1200x630!/quality/80/?url=https%3A%2F%2Fcalifornia-times-brightspot.s3.amazonaws.com%2F96%2F2d%2F9ba56daa078502ba00a4a7e67eab%2Fla-dd-clean-dry-decoding-the-language-of-beer-001",
    "state": "Vermont",
    "street": "133 N Main St Ste 7"
  },
  {
    "id": "85192a9c-58a4-48c3-bd9d-496d09d22aa3",
    "name": "16 Lots Brewing",
    "brewery_type": "brewpub",
    "address_1": "753 Reading Rd",
    "address_2": null,
    "address_3": null,
    "city": "Mason",
    "state_province": "Ohio",
    "postal_code": "45040-1303",
    "country": "United States",
    "longitude": "-84.3183801",
    "latitude": "39.3545967",
    "phone": "5134863672",
    "image": "https://www.wnct.com/wp-content/uploads/sites/99/2022/05/german-military-beer.jpg?w=1280",
    "state": "Ohio",
    "street": "753 Reading Rd"
  },
  {
    "id": "284b44f8-6ccb-4cd6-8d06-f2ad882a47c3",
    "name": "16 Mile Brewing Co",
    "brewery_type": "micro",
    "address_1": "413 S Bedford St",
    "address_2": null,
    "address_3": null,
    "city": "Georgetown",
    "state_province": "Delaware",
    "postal_code": "19947-1849",
    "country": "United States",
    "longitude": "-75.37816436",
    "latitude": "38.6788938",
    "phone": "3022538816",
    "image": "https://www.holidify.com/images/cmsuploads/compressed/beer-2910539_960_720_20200120152927.jpg",
    "state": "Delaware",
    "street": "413 S Bedford St"
  },
  {"id":"9f1852da-c312-42da-9a31-097bac81c4c0",
  "name":"10 Barrel Brewing Co - Bend Pub",
  "brewery_type":"large",
  "address_1":"62950 NE 18th St",
  "address_2":null,
  "address_3":null,
  "city":"Bend",
  "state_province":"Oregon",
  "postal_code":"97701",
  "country":"United States",
  "longitude":"-121.2809536",
  "latitude":"44.0912109",
  "phone":"5415851007",
  "image":"https://thumbs.dreamstime.com/b/bottles-famous-global-beer-brands-poznan-pol-mar-including-heineken-becks-bud-miller-corona-stella-artois-san-miguel-143170440.jpg",
  "state":"Oregon",
  "street":"62950 NE 18th St"
}
]
}